[
  {
    "id": "store_1",
    "name": "New York Grocery",
    "address": "4400 Broadway",
    "city": "New York",
    "state": "NY",
    "zip_code": "78564",
    "country": "USA",
    "phone": "+1-850-668-6611",
    "store_type": "Grocery Store",
    "products": [
      "Boost",
      "Cheerios",
      "Toll House",
      "Lean Cuisine",
      "KitKat"
    ],
    "latitude": 40.76051927375586,
    "longitude": -74.03123954474732
  },
  {
    "id": "store_2",
    "name": "QuickShop New York #2",
    "address": "3100 Market St",
    "city": "New York",
    "state": "NY",
    "zip_code": "75201",
    "country": "USA",
    "phone": "+1-694-450-2913",
    "store_type": "Grocery Store",
    "products": [
      "Maggi",
      "Purina",
      "Nescafe",
      "Haagen-Dazs",
      "Nestea",
      "Coffee-Mate",
      "KitKat",
      "Boost",
      "Nesquik",
      "Poland Spring"
    ],
    "latitude": 40.70412146331098,
    "longitude": -74.01934696346923
  },
  {
    "id": "store_3",
    "name": "GroceryWorld New York #3",
    "address": "700 Broadway",
    "city": "New York",
    "state": "NY",
    "zip_code": "63499",
    "country": "USA",
    "phone": "+1-606-396-4235",
    "store_type": "Grocery Store",
    "products": [
      "Maggi",
      "Gerber",
      "Lean Cuisine",
      "Nescafe",
      "KitKat",
      "Stouffer's"
    ],
    "latitude": 40.71818858421599,
    "longitude": -74.04001388077216
  },
  {
    "id": "store_4",
    "name": "SuperMart Los Angeles #1",
    "address": "600 Main St",
    "city": "Los Angeles",
    "state": "CA",
    "zip_code": "50046",
    "country": "USA",
    "phone": "+1-645-669-7223",
    "store_type": "Convenience Store",
    "products": [
      "Boost",
      "Nestea",
      "Maggi",
      "KitKat",
      "Coffee-Mate",
      "Toll House"
    ],
    "latitude": 34.09992468787344,
    "longitude": -118.21958839868427
  },
  {
    "id": "store_5",
    "name": "Urban Mart",
    "address": "1000 Washington St",
    "city": "Los Angeles",
    "state": "CA",
    "zip_code": "21933",
    "country": "USA",
    "phone": "+1-870-640-3378",
    "store_type": "Supermarket",
    "products": [
      "Nesquik",
      "Coffee-Mate",
      "Purina",
      "Nestea",
      "Boost",
      "Maggi",
      "Nescafe",
      "Haagen-Dazs",
      "Toll House",
      "Poland Spring"
    ],
    "latitude": 34.02178544918967,
    "longitude": -118.25083866723438
  },
  {
    "id": "store_6",
    "name": "GroceryWorld Chicago #1",
    "address": "9100 Main St",
    "city": "Chicago",
    "state": "IL",
    "zip_code": "48704",
    "country": "USA",
    "phone": "+1-810-761-2953",
    "store_type": "Department Store",
    "products": [
      "Nesquik",
      "Coffee-Mate",
      "Lean Cuisine",
      "Cheerios",
      "Gerber",
      "Stouffer's"
    ],
    "latitude": 41.83666900715509,
    "longitude": -87.63912053619404
  },
  {
    "id": "store_7",
    "name": "SuperMart Chicago #2",
    "address": "2500 Broadway",
    "city": "Chicago",
    "state": "IL",
    "zip_code": "76281",
    "country": "USA",
    "phone": "+1-691-685-5861",
    "store_type": "Grocery Store",
    "products": [
      "Nestea",
      "Stouffer's",
      "Purina",
      "Boost",
      "Haagen-Dazs",
      "Gerber"
    ],
    "latitude": 41.9152881893266,
    "longitude": -87.66987508989229
  },
  {
    "id": "store_8",
    "name": "GroceryWorld Toronto #1",
    "address": "2300 Washington St",
    "city": "Toronto",
    "state": "ON",
    "zip_code": "J4T 5R6",
    "country": "Canada",
    "phone": "+1-234-226-6427",
    "store_type": "Supermarket",
    "products": [
      "Cheerios",
      "Nesquik",
      "Boost",
      "Coffee-Mate",
      "Haagen-Dazs",
      "KitKat",
      "Nestea"
    ],
    "latitude": 43.64821001817087,
    "longitude": -79.36975324411091
  },
  {
    "id": "store_9",
    "name": "Downtown Foods",
    "address": "8700 Oak Ave",
    "city": "Toronto",
    "state": "ON",
    "zip_code": "E9P 3D2",
    "country": "Canada",
    "phone": "+1-272-516-6290",
    "store_type": "Department Store",
    "products": [
      "Boost",
      "Poland Spring",
      "Purina",
      "Haagen-Dazs",
      "Stouffer's",
      "KitKat",
      "Nescafe",
      "Maggi",
      "Cheerios",
      "Lean Cuisine",
      "Coffee-Mate",
      "Nesquik",
      "Toll House",
      "Gerber",
      "Nestea"
    ],
    "latitude": 43.67683129791299,
    "longitude": -79.41085113529033
  },
  {
    "id": "store_10",
    "name": "City Mart",
    "address": "8800 Washington St",
    "city": "Toronto",
    "state": "ON",
    "zip_code": "C2B 2I8",
    "country": "Canada",
    "phone": "+1-215-260-9835",
    "store_type": "Grocery Store",
    "products": [
      "Stouffer's",
      "Nescafe",
      "Lean Cuisine",
      "Boost",
      "Poland Spring"
    ],
    "latitude": 43.670817780390664,
    "longitude": -79.37292028618657
  },
  {
    "id": "store_11",
    "name": "GroceryWorld Toronto #4",
    "address": "6900 Maple Rd",
    "city": "Toronto",
    "state": "ON",
    "zip_code": "X1G 7C7",
    "country": "Canada",
    "phone": "+1-253-375-8054",
    "store_type": "Department Store",
    "products": [
      "Purina",
      "Nesquik",
      "KitKat",
      "Cheerios",
      "Lean Cuisine"
    ],
    "latitude": 43.701033355891184,
    "longitude": -79.33745928034523
  },
  {
    "id": "store_12",
    "name": "Downtown Supermarket",
    "address": "1300 Central Ave",
    "city": "Montreal",
    "state": "QC",
    "zip_code": "F6K 5L7",
    "country": "Canada",
    "phone": "+1-949-213-7288",
    "store_type": "Grocery Store",
    "products": [
      "Maggi",
      "Nestea",
      "Toll House",
      "Purina",
      "Stouffer's",
      "Poland Spring",
      "Cheerios"
    ],
    "latitude": 45.52950089939369,
    "longitude": -73.56918710295402
  },
  {
    "id": "store_13",
    "name": "GroceryWorld Montreal #2",
    "address": "9500 Market St",
    "city": "Montreal",
    "state": "QC",
    "zip_code": "J1Y 5O7",
    "country": "Canada",
    "phone": "+1-298-488-2063",
    "store_type": "Supermarket",
    "products": [
      "Maggi",
      "Gerber",
      "Purina",
      "Haagen-Dazs",
      "Nestea",
      "KitKat",
      "Toll House",
      "Lean Cuisine",
      "Coffee-Mate",
      "Stouffer's",
      "Cheerios",
      "Nescafe",
      "Boost",
      "Poland Spring",
      "Nesquik"
    ],
    "latitude": 45.52076362987923,
    "longitude": -73.5900473288518
  },
  {
    "id": "store_14",
    "name": "SuperMart Vancouver #1",
    "address": "2700 Washington St",
    "city": "Vancouver",
    "state": "BC",
    "zip_code": "W2M 7Z2",
    "country": "Canada",
    "phone": "+1-603-830-8364",
    "store_type": "Department Store",
    "products": [
      "Poland Spring",
      "Toll House",
      "Gerber",
      "Stouffer's",
      "Haagen-Dazs"
    ],
    "latitude": 49.2493404660882,
    "longitude": -123.08066107051306
  },
  {
    "id": "store_15",
    "name": "FoodBasics Vancouver #2",
    "address": "500 Oak Ave",
    "city": "Vancouver",
    "state": "BC",
    "zip_code": "H7Z 5I5",
    "country": "Canada",
    "phone": "+1-885-620-6284",
    "store_type": "Grocery Store",
    "products": [
      "Boost",
      "Coffee-Mate",
      "Purina",
      "Maggi",
      "Lean Cuisine",
      "Cheerios",
      "Nesquik",
      "Haagen-Dazs",
      "Poland Spring"
    ],
    "latitude": 49.2971883023315,
    "longitude": -123.09225804694402
  },
  {
    "id": "store_16",
    "name": "QuickShop Vancouver #3",
    "address": "3300 Main St",
    "city": "Vancouver",
    "state": "BC",
    "zip_code": "T5A 7X6",
    "country": "Canada",
    "phone": "+1-853-419-7504",
    "store_type": "Grocery Store",
    "products": [
      "Toll House",
      "Cheerios",
      "Gerber",
      "Haagen-Dazs",
      "Coffee-Mate",
      "Nestea",
      "KitKat",
      "Boost",
      "Purina",
      "Lean Cuisine",
      "Poland Spring",
      "Nescafe",
      "Maggi"
    ],
    "latitude": 49.32451200842599,
    "longitude": -123.13203211202044
  },
  {
    "id": "store_17",
    "name": "QuickShop San Francisco #1",
    "address": "6700 Park Blvd",
    "city": "San Francisco",
    "state": "CA",
    "zip_code": "91347",
    "country": "USA",
    "phone": "+1-438-548-6144",
    "store_type": "Supermarket",
    "products": [
      "Gerber",
      "Lean Cuisine",
      "Coffee-Mate",
      "Stouffer's",
      "Boost",
      "KitKat",
      "Toll House",
      "Poland Spring",
      "Purina"
    ],
    "latitude": 37.79615142347331,
    "longitude": -122.39416486473151
  },
  {
    "id": "store_18",
    "name": "GroceryWorld San Francisco #2",
    "address": "1200 Park Blvd",
    "city": "San Francisco",
    "state": "CA",
    "zip_code": "16698",
    "country": "USA",
    "phone": "+1-823-469-3371",
    "store_type": "Convenience Store",
    "products": [
      "Lean Cuisine",
      "Coffee-Mate",
      "Gerber",
      "Purina",
      "Nestea",
      "Haagen-Dazs",
      "Nesquik",
      "Poland Spring",
      "KitKat",
      "Maggi"
    ],
    "latitude": 37.824326574504774,
    "longitude": -122.46021977257043
  },
  {
    "id": "store_19",
    "name": "Downtown Grocery",
    "address": "2200 Maple Rd",
    "city": "Boston",
    "state": "MA",
    "zip_code": "55950",
    "country": "USA",
    "phone": "+1-742-807-1536",
    "store_type": "Grocery Store",
    "products": [
      "Nestea",
      "Purina",
      "Nesquik",
      "Nescafe",
      "Gerber"
    ],
    "latitude": 42.39616819715572,
    "longitude": -71.03314751961604
  },
  {
    "id": "store_20",
    "name": "SuperMart Boston #2",
    "address": "4000 Park Blvd",
    "city": "Boston",
    "state": "MA",
    "zip_code": "72258",
    "country": "USA",
    "phone": "+1-464-798-4735",
    "store_type": "Department Store",
    "products": [
      "Toll House",
      "Purina",
      "Nescafe",
      "Haagen-Dazs",
      "KitKat",
      "Maggi",
      "Nestea",
      "Nesquik",
      "Cheerios",
      "Gerber",
      "Stouffer's",
      "Poland Spring",
      "Coffee-Mate"
    ],
    "latitude": 42.35547351910368,
    "longitude": -71.06297515655451
  },
  {
    "id": "store_21",
    "name": "FoodBasics Miami #1",
    "address": "1200 Washington St",
    "city": "Miami",
    "state": "FL",
    "zip_code": "10762",
    "country": "USA",
    "phone": "+1-743-936-5672",
    "store_type": "Department Store",
    "products": [
      "Gerber",
      "Purina",
      "Nesquik",
      "Maggi",
      "Nescafe",
      "Lean Cuisine",
      "Stouffer's",
      "Cheerios",
      "KitKat",
      "Haagen-Dazs",
      "Coffee-Mate",
      "Nestea",
      "Boost"
    ],
    "latitude": 25.72445486667274,
    "longitude": -80.20521121189482
  },
  {
    "id": "store_22",
    "name": "SuperMart Miami #2",
    "address": "8300 Broadway",
    "city": "Miami",
    "state": "FL",
    "zip_code": "51179",
    "country": "USA",
    "phone": "+1-782-549-1616",
    "store_type": "Supermarket",
    "products": [
      "Maggi",
      "Cheerios",
      "Nesquik",
      "Poland Spring",
      "Coffee-Mate",
      "Boost",
      "Lean Cuisine",
      "Stouffer's"
    ],
    "latitude": 25.719604942741423,
    "longitude": -80.20519837470655
  },
  {
    "id": "store_23",
    "name": "GroceryWorld Miami #3",
    "address": "2200 Central Ave",
    "city": "Miami",
    "state": "FL",
    "zip_code": "59471",
    "country": "USA",
    "phone": "+1-475-661-2889",
    "store_type": "Supermarket",
    "products": [
      "Lean Cuisine",
      "Nestea",
      "Cheerios",
      "Stouffer's",
      "Nescafe",
      "Boost",
      "Toll House",
      "Nesquik",
      "Maggi",
      "KitKat"
    ],
    "latitude": 25.762450408866695,
    "longitude": -80.230802199165
  },
  {
    "id": "store_24",
    "name": "City Foods",
    "address": "6200 Oak Ave",
    "city": "Dallas",
    "state": "TX",
    "zip_code": "24240",
    "country": "USA",
    "phone": "+1-390-939-5367",
    "store_type": "Supermarket",
    "products": [
      "Nesquik",
      "KitKat",
      "Gerber",
      "Stouffer's",
      "Nestea",
      "Haagen-Dazs",
      "Toll House",
      "Poland Spring",
      "Coffee-Mate"
    ],
    "latitude": 32.75489969824974,
    "longitude": -96.77264283519047
  },
  {
    "id": "store_25",
    "name": "Metro Market",
    "address": "2700 Park Blvd",
    "city": "Dallas",
    "state": "TX",
    "zip_code": "93496",
    "country": "USA",
    "phone": "+1-458-612-6153",
    "store_type": "Convenience Store",
    "products": [
      "Stouffer's",
      "Nesquik",
      "Coffee-Mate",
      "KitKat",
      "Maggi",
      "Haagen-Dazs",
      "Nescafe",
      "Boost",
      "Toll House",
      "Nestea",
      "Cheerios",
      "Gerber",
      "Lean Cuisine"
    ],
    "latitude": 32.75944153970489,
    "longitude": -96.78343234931158
  },
  {
    "id": "store_26",
    "name": "Dallas Market",
    "address": "7100 Maple Rd",
    "city": "Dallas",
    "state": "TX",
    "zip_code": "30423",
    "country": "USA",
    "phone": "+1-791-580-3595",
    "store_type": "Department Store",
    "products": [
      "Nesquik",
      "Maggi",
      "Haagen-Dazs",
      "KitKat",
      "Cheerios",
      "Gerber",
      "Lean Cuisine",
      "Boost",
      "Purina",
      "Stouffer's",
      "Poland Spring",
      "Nescafe"
    ],
    "latitude": 32.746890493215176,
    "longitude": -96.777250467897
  }
]